$GPRMC,093422.00,A,1305.53282,N,08017.54232,E,0.073,,100815,,,A*72
$GPRMC,093421.00,A,1305.53247,N,08017.54181,E,0.185,,100815,,,A*7B
$GPRMC,093420.00,A,1305.53211,N,08017.54145,E,0.291,,100815,,,A*77
$GPRMC,093419.00,A,1305.53188,N,08017.54131,E,0.247,,100815,,,A*76
$GPRMC,093418.00,A,1305.53160,N,08017.54111,E,0.354,,100815,,,A*70
$GPRMC,093417.00,A,1305.53112,N,08017.54098,E,0.263,,100815,,,A*7F
$GPRMC,093416.00,A,1305.53077,N,08017.54082,E,0.334,,100815,,,A*74
$GPRMC,093415.00,A,1305.53046,N,08017.54063,E,0.307,,100815,,,A*7A
$GPRMC,093413.00,A,1305.52943,N,08017.53980,E,0.421,,100815,,,A*71
$GPRMC,093412.00,A,1305.52904,N,08017.53963,E,0.270,,100815,,,A*7C
$GPRMC,093411.00,A,1305.52878,N,08017.53940,E,0.213,,100815,,,A*71
$GPRMC,093410.00,A,1305.52846,N,08017.53901,E,0.272,,100815,,,A*7F
$GPRMC,093409.00,A,1305.52811,N,08017.53848,E,0.552,,100815,,,A*7C
$GPRMC,093408.00,A,1305.52776,N,08017.53824,E,0.222,,100815,,,A*79
$GPRMC,093407.00,A,1305.52730,N,08017.53778,E,0.434,,100815,,,A*73
$GPRMC,093406.00,A,1305.52671,N,08017.53736,E,0.940,3.36,100815,,,A*6A
$GPRMC,093404.00,A,1305.52503,N,08017.53673,E,3.068,6.12,100815,,,A*6D
$GPRMC,093403.00,A,1305.52369,N,08017.53645,E,4.116,6.88,100815,,,A*69
$GPRMC,093402.00,A,1305.52195,N,08017.53583,E,5.256,5.96,100815,,,A*6A
$GPRMC,093401.00,A,1305.51989,N,08017.53525,E,4.531,5.47,100815,,,A*68
$GPRMC,093400.00,A,1305.51797,N,08017.53491,E,5.105,9.42,100815,,,A*6D
$GPRMC,093359.00,A,1305.51592,N,08017.53410,E,4.170,5.06,100815,,,A*67
$GPRMC,093358.00,A,1305.51434,N,08017.53372,E,4.855,1.68,100815,,,A*6A
$GPRMC,093357.00,A,1305.51236,N,08017.53305,E,4.977,355.69,100815,,,A*63
$GPRMC,093355.00,A,1305.50895,N,08017.53262,E,3.563,354.20,100815,,,A*61
$GPRMC,093354.00,A,1305.50736,N,08017.53216,E,3.032,350.86,100815,,,A*6C
$GPRMC,093353.00,A,1305.50627,N,08017.53210,E,3.264,358.93,100815,,,A*61
$GPRMC,093352.00,A,1305.50502,N,08017.53186,E,3.607,4.41,100815,,,A*6C
$GPRMC,093351.00,A,1305.50375,N,08017.53146,E,5.004,4.66,100815,,,A*63
$GPRMC,093350.00,A,1305.50207,N,08017.53117,E,5.609,5.94,100815,,,A*65
$GPRMC,093349.00,A,1305.50016,N,08017.53071,E,5.878,7.17,100815,,,A*6F
$GPRMC,093348.00,A,1305.49807,N,08017.53004,E,5.664,5.15,100815,,,A*6F
$GPRMC,093346.00,A,1305.49375,N,08017.52865,E,4.757,1.21,100815,,,A*62
$GPRMC,093345.00,A,1305.49200,N,08017.52809,E,4.389,358.36,100815,,,A*66
$GPRMC,093344.00,A,1305.49038,N,08017.52779,E,4.547,1.96,100815,,,A*67
$GPRMC,093343.00,A,1305.48879,N,08017.52758,E,5.028,6.00,100815,,,A*6A
$GPRMC,093342.00,A,1305.48701,N,08017.52722,E,3.856,9.71,100815,,,A*68
$GPRMC,093341.00,A,1305.48570,N,08017.52676,E,5.457,7.15,100815,,,A*68
$GPRMC,093340.00,A,1305.48356,N,08017.52638,E,5.689,8.30,100815,,,A*68
$GPRMC,093339.00,A,1305.48142,N,08017.52592,E,5.885,12.20,100815,,,A*5A
$GPRMC,093337.00,A,1305.47729,N,08017.52456,E,6.057,12.15,100815,,,A*5B
$GPRMC,093336.00,A,1305.47505,N,08017.52385,E,5.248,12.60,100815,,,A*52
$GPRMC,093335.00,A,1305.47288,N,08017.52311,E,6.838,13.03,100815,,,A*54
$GPRMC,093334.00,A,1305.47037,N,08017.52231,E,5.440,14.03,100815,,,A*57
$GPRMC,093333.00,A,1305.46806,N,08017.52178,E,7.138,13.66,100815,,,A*59
$GPRMC,093332.00,A,1305.46531,N,08017.52099,E,5.839,14.22,100815,,,A*52
$GPRMC,093331.00,A,1305.46304,N,08017.52032,E,5.116,8.62,100815,,,A*6D
$GPRMC,093330.00,A,1305.46094,N,08017.51977,E,4.602,8.84,,100815,,,A*66
$GPRMC,093328.00,A,1305.45767,N,08017.51870,E,4.310,10.67,100815,,,A*53
$GPRMC,093327.00,A,1305.45591,N,08017.51840,E,5.439,11.38,100815,,,A*52
$GPRMC,093326.00,A,1305.45397,N,08017.51820,E,4.055,16.37,100815,,,A*52
$GPRMC,093325.00,A,1305.45250,N,08017.51801,E,1.481,,100815,,,A*7D
$GPRMC,093324.00,A,1305.45196,N,08017.51832,E,0.951,,100815,,,A*74
$GPRMC,093323.00,A,1305.45172,N,08017.51840,E,1.037,,100815,,,A*74
$GPRMC,093322.00,A,1305.45121,N,08017.51804,E,4.006,25.80,100815,,,A*55
$GPRMC,093321.00,A,1305.44992,N,08017.51739,E,6.128,27.92,100815,,,A*58
$GPRMC,093319.00,A,1305.44718,N,08017.51652,E,5.635,8.23,100815,,,A*6C
$GPRMC,093318.00,A,1305.44547,N,08017.51613,E,5.380,10.74,100815,,,A*50
$GPRMC,093317.00,A,1305.44406,N,08017.51572,E,4.561,10.12,100815,,,A*57
$GPRMC,093316.00,A,1305.44245,N,08017.51535,E,6.540,12.43,100815,,,A*53
$GPRMC,093315.00,A,1305.44053,N,08017.51487,E,7.694,16.19,100815,,,A*5D
$GPRMC,093314.00,A,1305.43850,N,08017.51416,E,6.373,15.17,100815,,,A*58
$GPRMC,093313.00,A,1305.43670,N,08017.51367,E,6.969,16.84,100815,,,A*5A
$GPRMC,093312.00,A,1305.43469,N,08017.51293,E,6.630,17.63,100815,,,A*50
$GPRMC,093310.00,A,1305.43072,N,08017.51163,E,6.917,12.03,100815,,,A*59
$GPRMC,093309.00,A,1305.42876,N,08017.51148,E,7.231,21.28,100815,,,A*52
$GPRMC,093308.00,A,1305.42684,N,08017.51060,E,7.514,16.65,100815,,,A*56
$GPRMC,093307.00,A,1305.42478,N,08017.50978,E,7.098,15.35,100815,,,A*5E
$GPRMC,093306.00,A,1305.42283,N,08017.50919,E,6.708,14.19,100815,,,A*5A
$GPRMC,093305.00,A,1305.42087,N,08017.50874,E,8.012,13.88,100815,,,A*58
$GPRMC,093304.00,A,1305.41858,N,08017.50808,E,8.270,14.85,100815,,,A*57
$GPRMC,093303.00,A,1305.41618,N,08017.50720,E,8.155,11.66,100815,,,A*53
$GPRMC,093301.00,A,1305.41133,N,08017.50598,E,8.189,12.40,100815,,,A*58
$GPRMC,093300.00,A,1305.40888,N,08017.50535,E,7.591,10.57,100815,,,A*50
$GPRMC,093259.00,A,1305.40673,N,08017.50485,E,7.117,12.47,100815,,,A*54
$GPRMC,093258.00,A,1305.40461,N,08017.50424,E,6.495,11.30,100815,,,A*52
$GPRMC,093257.00,A,1305.40275,N,08017.50380,E,6.236,13.16,100815,,,A*5E
$GPRMC,093256.00,A,1305.40093,N,08017.50333,E,5.705,13.99,100815,,,A*5C
$GPRMC,093255.00,A,1305.39935,N,08017.50289,E,5.687,10.12,100815,,,A*5F
$GPRMC,093254.00,A,1305.39776,N,08017.50259,E,5.078,9.24,100815,,,A*61
$GPRMC,093252.00,A,1305.39489,N,08017.50218,E,5.503,8.59,100815,,,A*63
$GPRMC,093251.00,A,1305.39337,N,08017.50205,E,6.030,10.44,100815,,,A*5D
$GPRMC,093250.00,A,1305.39170,N,08017.50166,E,6.209,10.36,100815,,,A*56
$GPRMC,093249.00,A,1305.39000,N,08017.50137,E,6.412,11.56,100815,,,A*57
$GPRMC,093248.00,A,1305.38828,N,08017.50102,E,6.590,12.97,100815,,,A*56
$GPRMC,093247.00,A,1305.38646,N,08017.50053,E,6.667,14.25,100815,,,A*5E
$GPRMC,093246.00,A,1305.38458,N,08017.49979,E,6.772,11.69,100815,,,A*53
$GPRMC,093245.00,A,1305.38267,N,08017.49936,E,6.755,11.57,100815,,,A*59
$GPRMC,093243.00,A,1305.37894,N,08017.49836,E,6.889,8.50,100815,,,A*66
$GPRMC,093242.00,A,1305.37707,N,08017.49798,E,6.000,7.57,100815,,,A*68
$GPRMC,093241.00,A,1305.37534,N,08017.49774,E,6.992,9.87,100815,,,A*6A
$GPRMC,093240.00,A,1305.37336,N,08017.49741,E,7.376,11.46,100815,,,A*5C
$GPRMC,093239.00,A,1305.37133,N,08017.49691,E,7.089,9.43,100815,,,A*66
$GPRMC,093238.00,A,1305.36934,N,08017.49662,E,7.164,12.18,100815,,,A*53
$GPRMC,093237.00,A,1305.36739,N,08017.49607,E,7.318,12.20,100815,,,A*5E
$GPRMC,093236.00,A,1305.36532,N,08017.49555,E,7.286,11.04,100815,,,A*51
$GPRMC,093234.00,A,1305.36141,N,08017.49469,E,7.066,12.06,100815,,,A*50
$GPRMC,093233.00,A,1305.35941,N,08017.49428,E,6.928,11.85,100815,,,A*53
$GPRMC,093232.00,A,1305.35747,N,08017.49382,E,7.135,11.98,100815,,,A*54
$GPRMC,093231.00,A,1305.35552,N,08017.49339,E,6.871,9.72,100815,,,A*64
$GPRMC,093230.00,A,1305.35360,N,08017.49303,E,6.909,9.60,100815,,,A*66
$GPRMC,093229.00,A,1305.35174,N,08017.49267,E,6.760,10.88,100815,,,A*55
$GPRMC,093228.00,A,1305.34991,N,08017.49226,E,6.828,12.75,100815,,,A*50
$GPRMC,093227.00,A,1305.34800,N,08017.49179,E,6.667,12.96,100815,,,A*57
$GPRMC,093225.00,A,1305.34439,N,08017.49088,E,6.603,13.03,100815,,,A*53
$GPRMC,093224.00,A,1305.34259,N,08017.49030,E,6.637,12.46,100815,,,A*56
$GPRMC,093223.00,A,1305.34073,N,08017.48982,E,6.573,11.69,100815,,,A*57
$GPRMC,093222.00,A,1305.33888,N,08017.48934,E,6.634,12.29,100815,,,A*57
$GPRMC,093221.00,A,1305.33706,N,08017.48884,E,6.554,11.63,100815,,,A*5F
$GPRMC,093220.00,A,1305.33522,N,08017.48840,E,6.675,12.40,100815,,,A*50
$GPRMC,093219.00,A,1305.33339,N,08017.48797,E,6.139,10.36,100815,,,A*5F
$GPRMC,093218.00,A,1305.33166,N,08017.48762,E,6.546,13.28,100815,,,A*5C
$GPRMC,093216.00,A,1305.32797,N,08017.48666,E,7.012,12.07,100815,,,A*57
$GPRMC,093215.00,A,1305.32600,N,08017.48613,E,7.019,10.86,100815,,,A*59
$GPRMC,093214.00,A,1305.32403,N,08017.48569,E,6.983,11.04,100815,,,A*57
$GPRMC,093213.00,A,1305.32208,N,08017.48527,E,6.989,11.15,100815,,,A*5D
$GPRMC,093212.00,A,1305.32013,N,08017.48486,E,7.212,10.90,100815,,,A*5A
$GPRMC,093211.00,A,1305.31814,N,08017.48442,E,7.191,9.87,100815,,,A*6B
$GPRMC,093210.00,A,1305.31615,N,08017.48398,E,7.176,8.49,100815,,,A*6F
$GPRMC,093209.00,A,1305.31417,N,08017.48360,E,7.387,9.18,100815,,,A*69
$GPRMC,093207.00,A,1305.31011,N,08017.48289,E,7.555,8.49,100815,,,A*6F
$GPRMC,093206.00,A,1305.30800,N,08017.48243,E,7.320,7.17,100815,,,A*61
$GPRMC,093205.00,A,1305.30593,N,08017.48210,E,7.554,7.01,100815,,,A*61
$GPRMC,093204.00,A,1305.30380,N,08017.48177,E,7.666,7.14,100815,,,A*60
$GPRMC,093203.00,A,1305.30163,N,08017.48143,E,7.684,6.73,100815,,,A*63
$GPRMC,093202.00,A,1305.29945,N,08017.48117,E,7.993,6.85,100815,,,A*67
$GPRMC,093201.00,A,1305.29718,N,08017.48079,E,7.795,5.02,100815,,,A*6F
$GPRMC,093200.00,A,1305.29499,N,08017.48047,E,7.980,6.17,100815,,,A*64
$GPRMC,093158.00,A,1305.29036,N,08017.47975,E,8.278,8.27,100815,,,A*62
$GPRMC,093157.00,A,1305.28801,N,08017.47936,E,8.190,8.50,100815,,,A*62
$GPRMC,093156.00,A,1305.28568,N,08017.47892,E,8.292,8.33,100815,,,A*6A
$GPRMC,093155.00,A,1305.28338,N,08017.47845,E,8.367,8.52,100815,,,A*6C
$GPRMC,093154.00,A,1305.28101,N,08017.47794,E,8.407,8.93,100815,,,A*6A
$GPRMC,093153.00,A,1305.27863,N,08017.47744,E,8.376,8.61,100815,,,A*6E
$GPRMC,093152.00,A,1305.27622,N,08017.47701,E,8.608,10.16,100815,,,A*50
$GPRMC,093151.00,A,1305.27374,N,08017.47641,E,8.537,10.16,100815,,,A*5F
$GPRMC,093149.00,A,1305.26880,N,08017.47517,E,8.732,10.93,100815,,,A*5D
$GPRMC,093148.00,A,1305.26636,N,08017.47460,E,8.782,11.10,100815,,,A*5F
$GPRMC,093147.00,A,1305.26387,N,08017.47398,E,8.753,11.28,100815,,,A*58
$GPRMC,093146.00,A,1305.26141,N,08017.47341,E,8.563,11.85,100815,,,A*53
$GPRMC,093145.00,A,1305.25903,N,08017.47283,E,8.654,11.29,100815,,,A*53
$GPRMC,093144.00,A,1305.25659,N,08017.47228,E,8.793,11.79,100815,,,A*5C
$GPRMC,093143.00,A,1305.25408,N,08017.47163,E,8.926,10.87,100815,,,A*51
$GPRMC,093142.00,A,1305.25154,N,08017.47107,E,8.749,10.73,100815,,,A*52
$GPRMC,093140.00,A,1305.24655,N,08017.46988,E,9.245,10.46,100815,,,A*57
$GPRMC,093139.00,A,1305.24398,N,08017.46929,E,8.738,10.71,100815,,,A*5C
$GPRMC,093138.00,A,1305.24146,N,08017.46877,E,8.857,11.58,100815,,,A*5A
$GPRMC,093137.00,A,1305.23891,N,08017.46810,E,9.097,11.03,100815,,,A*5B
$GPRMC,093136.00,A,1305.23629,N,08017.46753,E,8.922,10.48,100815,,,A*57
$GPRMC,093135.00,A,1305.23371,N,08017.46703,E,8.997,10.78,100815,,,A*54
$GPRMC,093134.00,A,1305.23111,N,08017.46642,E,9.008,11.07,100815,,,A*52
$GPRMC,093133.00,A,1305.22861,N,08017.46571,E,8.844,11.10,100815,,,A*5E
$GPRMC,093131.00,A,1305.22338,N,08017.46442,E,9.040,10.91,100815,,,A*5F
$GPRMC,093130.00,A,1305.22079,N,08017.46376,E,9.179,9.69,100815,,,A*6C
$GPRMC,093129.00,A,1305.21814,N,08017.46312,E,8.925,8.33,100815,,,A*68
$GPRMC,093128.00,A,1305.21556,N,08017.46266,E,9.291,10.34,100815,,,A*5B
$GPRMC,093127.00,A,1305.21287,N,08017.46207,E,9.283,10.67,100815,,,A*5D
$GPRMC,093126.00,A,1305.21014,N,08017.46139,E,9.400,9.88,100815,,,A*6E
$GPRMC,093125.00,A,1305.20732,N,08017.46064,E,9.070,9.26,100815,,,A*61
$GPRMC,093124.00,A,1305.20471,N,08017.46009,E,9.196,10.57,100815,,,A*58
$GPRMC,093122.00,A,1305.19928,N,08017.45863,E,9.355,11.12,100815,,,A*5F
$GPRMC,093121.00,A,1305.19648,N,08017.45783,E,9.121,11.97,100815,,,A*58
$GPRMC,093120.00,A,1305.19386,N,08017.45728,E,9.320,14.33,100815,,,A*57
$GPRMC,093119.00,A,1305.19111,N,08017.45648,E,8.852,16.33,100815,,,A*5B
$GPRMC,093118.00,A,1305.18854,N,08017.45549,E,9.332,15.64,100815,,,A*5C
$GPRMC,093117.00,A,1305.18586,N,08017.45436,E,9.205,15.11,100815,,,A*5F
$GPRMC,093116.00,A,1305.18321,N,08017.45346,E,9.084,16.94,100815,,,A*50
$GPRMC,093115.00,A,1305.18063,N,08017.45262,E,8.824,19.14,100815,,,A*55
$GPRMC,093113.00,A,1305.17579,N,08017.45082,E,9.744,22.12,100815,,,A*58
$GPRMC,093112.00,A,1305.17325,N,08017.44949,E,9.171,22.73,100815,,,A*5E
$GPRMC,093111.00,A,1305.17086,N,08017.44841,E,9.259,24.61,100815,,,A*52
$GPRMC,093110.00,A,1305.16839,N,08017.44725,E,9.355,28.36,100815,,,A*50
$GPRMC,093109.00,A,1305.16595,N,08017.44579,E,9.019,30.41,100815,,,A*5A
$GPRMC,093108.00,A,1305.16377,N,08017.44448,E,8.682,32.57,100815,,,A*52
$GPRMC,093107.00,A,1305.16185,N,08017.44312,E,9.547,32.59,100815,,,A*5F
$GPRMC,093106.00,A,1305.15966,N,08017.44145,E,8.932,35.61,100815,,,A*5B
$GPRMC,093104.00,A,1305.15548,N,08017.43791,E,9.200,33.57,100815,,,A*59
$GPRMC,093103.00,A,1305.15337,N,08017.43639,E,8.383,31.65,100815,,,A*5B
$GPRMC,093102.00,A,1305.15119,N,08017.43505,E,8.156,39.26,100815,,,A*5D
$GPRMC,093101.00,A,1305.14932,N,08017.43364,E,8.751,43.23,100815,,,A*56
$GPRMC,093100.00,A,1305.14753,N,08017.43203,E,8.503,44.95,100815,,,A*51
$GPRMC,093059.00,A,1305.14579,N,08017.43028,E,9.235,43.03,100815,,,A*56
$GPRMC,093058.00,A,1305.14389,N,08017.42841,E,9.284,43.12,100815,,,A*52
$GPRMC,093057.00,A,1305.14199,N,08017.42645,E,9.543,43.21,100815,,,A*58
$GPRMC,093055.00,A,1305.13828,N,08017.42262,E,9.075,48.94,100815,,,A*5A
$GPRMC,093054.00,A,1305.13656,N,08017.42060,E,9.360,47.65,100815,,,A*5A
$GPRMC,093053.00,A,1305.13479,N,08017.41858,E,9.571,50.18,100815,,,A*58
$GPRMC,093052.00,A,1305.13299,N,08017.41643,E,9.703,52.16,100815,,,A*5E
$GPRMC,093051.00,A,1305.13141,N,08017.41412,E,10.352,54.48,100815,,,A*68
$GPRMC,093050.00,A,1305.12974,N,08017.41159,E,10.962,53.04,100815,,,A*6A
$GPRMC,093049.00,A,1305.12791,N,08017.40908,E,11.003,55.34,100815,,,A*60
$GPRMC,093048.00,A,1305.12609,N,08017.40645,E,10.897,56.90,100815,,,A*6E
$GPRMC,093046.00,A,1305.12289,N,08017.40103,E,10.824,58.98,100815,,,A*67
$GPRMC,093045.00,A,1305.12136,N,08017.39832,E,10.851,61.58,100815,,,A*62
$GPRMC,093044.00,A,1305.12005,N,08017.39536,E,10.990,62.81,100815,,,A*60
$GPRMC,093043.00,A,1305.11863,N,08017.39248,E,10.919,65.18,100815,,,A*64
$GPRMC,093042.00,A,1305.11740,N,08017.38944,E,11.096,64.53,100815,,,A*6C
$GPRMC,093041.00,A,1305.11607,N,08017.38641,E,11.117,64.57,100815,,,A*6B
$GPRMC,093040.00,A,1305.11470,N,08017.38343,E,11.206,69.17,100815,,,A*65
$GPRMC,093039.00,A,1305.11356,N,08017.38029,E,11.058,69.53,100815,,,A*6E
$GPRMC,093037.00,A,1305.11134,N,08017.37421,E,10.613,70.56,100815,,,A*60
$GPRMC,093036.00,A,1305.11042,N,08017.37116,E,11.117,71.09,100815,,,A*69
$GPRMC,093035.00,A,1305.10942,N,08017.36794,E,10.996,71.99,100815,,,A*66
$GPRMC,093034.00,A,1305.10860,N,08017.36476,E,11.072,72.99,100815,,,A*68
$GPRMC,093033.00,A,1305.10769,N,08017.36155,E,11.194,73.77,100815,,,A*65
$GPRMC,093032.00,A,1305.10689,N,08017.35818,E,11.012,75.03,100815,,,A*62
$GPRMC,093031.00,A,1305.10606,N,08017.35489,E,10.969,74.27,100815,,,A*61
$GPRMC,093030.00,A,1305.10534,N,08017.35181,E,8.246,76.04,100815,,,A*53
$GPRMC,093028.00,A,1305.10431,N,08017.34626,E,9.376,71.14,100815,,,A*50
$GPRMC,093027.00,A,1305.10344,N,08017.34334,E,11.373,69.15,100815,,,A*68
$GPRMC,093026.00,A,1305.10215,N,08017.33999,E,14.351,73.18,100815,,,A*65
$GPRMC,093025.00,A,1305.10095,N,08017.33587,E,14.740,73.80,100815,,,A*6A
$GPRMC,093024.00,A,1305.09980,N,08017.33186,E,13.495,72.43,100815,,,A*69
$GPRMC,093023.00,A,1305.09865,N,08017.32794,E,14.665,75.70,100815,,,A*6D
$GPRMC,093022.00,A,1305.09777,N,08017.32368,E,14.446,73.16,100815,,,A*62
$GPRMC,093021.00,A,1305.09691,N,08017.31950,E,14.609,71.98,100815,,,A*67
$GPRMC,093019.00,A,1305.09513,N,08017.31108,E,14.787,75.83,100815,,,A*69
$GPRMC,093018.00,A,1305.09432,N,08017.30677,E,15.246,75.71,100815,,,A*60
$GPRMC,093017.00,A,1305.09337,N,08017.30245,E,15.462,79.82,100815,,,A*68
$GPRMC,093016.00,A,1305.09294,N,08017.29783,E,15.370,78.13,100815,,,A*6B
$GPRMC,093015.00,A,1305.09222,N,08017.29336,E,16.474,76.42,100815,,,A*65
$GPRMC,093014.00,A,1305.09137,N,08017.28855,E,17.564,83.04,100815,,,A*65
$GPRMC,093013.00,A,1305.09113,N,08017.28315,E,18.754,83.93,100815,,,A*6B
$GPRMC,093012.00,A,1305.09087,N,08017.27751,E,19.163,84.70,100815,,,A*64
$GPRMC,093010.00,A,1305.09051,N,08017.26607,E,19.221,88.80,100815,,,A*68
$GPRMC,093009.00,A,1305.09056,N,08017.26045,E,19.647,90.19,100815,,,A*6A
$GPRMC,093008.00,A,1305.09077,N,08017.25469,E,19.537,90.27,100815,,,A*68
$GPRMC,093007.00,A,1305.09103,N,08017.24895,E,19.890,93.60,100815,,,A*6B
$GPRMC,093006.00,A,1305.09155,N,08017.24328,E,17.916,89.11,100815,,,A*68
$GPRMC,093005.00,A,1305.09151,N,08017.23806,E,18.972,88.57,100815,,,A*61
$GPRMC,093004.00,A,1305.09142,N,08017.23258,E,19.520,90.84,100815,,,A*6E
$GPRMC,093003.00,A,1305.09149,N,08017.22703,E,19.359,89.46,100815,,,A*66
$GPRMC,093001.00,A,1305.09174,N,08017.21562,E,20.464,93.55,100815,,,A*66
$GPRMC,093000.00,A,1305.09218,N,08017.20968,E,20.770,96.17,100815,,,A*6C
$GPRMC,092959.00,A,1305.09274,N,08017.20367,E,21.413,92.93,100815,,,A*68
$GPRMC,092958.00,A,1305.09314,N,08017.19760,E,20.096,94.51,100815,,,A*67
$GPRMC,092957.00,A,1305.09353,N,08017.19176,E,20.224,95.10,100815,,,A*65
$GPRMC,092956.00,A,1305.09411,N,08017.18584,E,21.107,96.34,100815,,,A*6B
$GPRMC,092955.00,A,1305.09488,N,08017.17974,E,21.337,95.93,100815,,,A*6B
$GPRMC,092954.00,A,1305.09562,N,08017.17355,E,21.774,95.12,100815,,,A*6C
$GPRMC,092952.00,A,1305.09683,N,08017.16130,E,21.154,95.09,100815,,,A*68
$GPRMC,092951.00,A,1305.09738,N,08017.15524,E,20.965,93.80,100815,,,A*64
$GPRMC,092950.00,A,1305.09782,N,08017.14918,E,20.479,91.80,100815,,,A*64
$GPRMC,092949.00,A,1305.09816,N,08017.14327,E,20.185,90.18,100815,,,A*6E
$GPRMC,092948.00,A,1305.09814,N,08017.13755,E,19.880,91.32,100815,,,A*64
$GPRMC,092947.00,A,1305.09823,N,08017.13184,E,20.390,90.75,100815,,,A*67
$GPRMC,092946.00,A,1305.09824,N,08017.12591,E,20.437,91.23,100815,,,A*68
$GPRMC,092945.00,A,1305.09826,N,08017.12014,E,19.239,85.31,100815,,,A*65
$GPRMC,092943.00,A,1305.09733,N,08017.10892,E,19.982,85.26,100815,,,A*61
$GPRMC,092942.00,A,1305.09669,N,08017.10318,E,20.062,83.24,100815,,,A*6E
$GPRMC,092941.00,A,1305.09570,N,08017.09735,E,19.723,80.45,100815,,,A*69
$GPRMC,092940.00,A,1305.09449,N,08017.09163,E,19.734,78.52,100815,,,A*61
$GPRMC,092939.00,A,1305.09313,N,08017.08598,E,19.552,76.10,100815,,,A*6C
$GPRMC,092938.00,A,1305.09149,N,08017.08038,E,19.272,74.04,100815,,,A*6D
$GPRMC,092937.00,A,1305.08980,N,08017.07504,E,19.255,72.13,100815,,,A*6E
$GPRMC,092936.00,A,1305.08804,N,08017.06980,E,19.042,69.09,100815,,,A*66
$GPRMC,092934.00,A,1305.08336,N,08017.05901,E,19.074,64.82,100815,,,A*6F
$GPRMC,092933.00,A,1305.08090,N,08017.05400,E,18.419,63.85,100815,,,A*65
$GPRMC,092932.00,A,1305.07831,N,08017.04909,E,18.444,60.26,100815,,,A*6F
$GPRMC,092931.00,A,1305.07497,N,08017.04389,E,17.937,60.12,100815,,,A*6F
$GPRMC,092930.00,A,1305.07190,N,08017.03902,E,17.509,55.73,100815,,,A*62
$GPRMC,092929.00,A,1305.06890,N,08017.03478,E,17.741,54.69,100815,,,A*66
$GPRMC,092928.00,A,1305.06572,N,08017.03043,E,17.154,51.93,100815,,,A*68
$GPRMC,092927.00,A,1305.06201,N,08017.02617,E,16.751,48.95,100815,,,A*6E
$GPRMC,092925.00,A,1305.05367,N,08017.01813,E,15.761,45.48,100815,,,A*6A
$GPRMC,092924.00,A,1305.05039,N,08017.01479,E,15.718,44.12,100815,,,A*63
$GPRMC,092923.00,A,1305.04679,N,08017.01142,E,15.116,43.58,100815,,,A*6B
$GPRMC,092922.00,A,1305.04351,N,08017.00834,E,13.001,47.30,100815,,,A*67
$GPRMC,092921.00,A,1305.04111,N,08017.00560,E,14.003,39.29,100815,,,A*6A
$GPRMC,092920.00,A,1305.03790,N,08017.00296,E,15.121,35.39,100815,,,A*60
$GPRMC,092919.00,A,1305.03437,N,08017.00038,E,13.930,35.22,100815,,,A*66
$GPRMC,092918.00,A,1305.03112,N,08016.99796,E,11.909,38.33,100815,,,A*62
$GPRMC,092916.00,A,1305.02451,N,08016.99272,E,10.242,30.82,100815,,,A*67
$GPRMC,092915.00,A,1305.02172,N,08016.99102,E,9.931,29.31,100815,,,A*53
$GPRMC,092914.00,A,1305.01922,N,08016.98948,E,11.041,26.92,100815,,,A*6A
$GPRMC,092913.00,A,1305.01614,N,08016.98773,E,10.698,26.81,100815,,,A*60
$GPRMC,092912.00,A,1305.01328,N,08016.98605,E,8.514,30.38,100815,,,A*50
$GPRMC,092911.00,A,1305.01103,N,08016.98455,E,7.693,23.17,100815,,,A*53
$GPRMC,092910.00,A,1305.00901,N,08016.98363,E,7.259,20.30,100815,,,A*5F
$GPRMC,092909.00,A,1305.00679,N,08016.98266,E,6.430,22.86,100815,,,A*54
$GPRMC,092907.00,A,1305.00371,N,08016.98128,E,5.128,28.18,100815,,,A*5C
$GPRMC,092906.00,A,1305.00246,N,08016.98059,E,5.464,30.64,100815,,,A*50
$GPRMC,092905.00,A,1305.00127,N,08016.97977,E,4.206,33.42,100815,,,A*59
$GPRMC,092904.00,A,1305.00039,N,08016.97899,E,3.598,29.82,100815,,,A*57
$GPRMC,092903.00,A,1304.99965,N,08016.97837,E,3.356,24.35,100815,,,A*50
$GPRMC,092902.00,A,1304.99884,N,08016.97788,E,2.210,30.12,100815,,,A*56
$GPRMC,092901.00,A,1304.99878,N,08016.97760,E,0.000,,100815,,,A*7F
$GPRMC,092900.00,A,1304.99878,N,08016.97760,E,0.000,,100815,,,A*7E
$GPRMC,092858.00,A,1304.99878,N,08016.97760,E,0.000,,100815,,,A*72
$GPRMC,092857.00,A,1304.99878,N,08016.97760,E,0.000,,100815,,,A*7D
$GPRMC,092856.00,A,1304.99878,N,08016.97760,E,0.000,,100815,,,A*7C
$GPRMC,092855.00,A,1304.99878,N,08016.97760,E,0.000,,100815,,,A*7F
$GPRMC,092854.00,A,1304.99878,N,08016.97760,E,0.000,,100815,,,A*7E
$GPRMC,092853.00,A,1304.99878,N,08016.97760,E,0.000,,100815,,,A*79
$GPRMC,092852.00,A,1304.99878,N,08016.97760,E,0.000,,100815,,,A*78
$GPRMC,092851.00,A,1304.99878,N,08016.97760,E,0.000,,100815,,,A*7B
$GPRMC,092849.00,A,1304.99878,N,08016.97760,E,0.000,,100815,,,A*72
$GPRMC,092848.00,A,1304.99878,N,08016.97760,E,0.000,,100815,,,A*73
$GPRMC,092847.00,A,1304.99878,N,08016.97760,E,0.000,,100815,,,A*7C
$GPRMC,092846.00,A,1304.99878,N,08016.97760,E,0.000,,100815,,,A*7D
$GPRMC,092845.00,A,1304.99878,N,08016.97760,E,0.000,,100815,,,A*7E
$GPRMC,092844.00,A,1304.99878,N,08016.97760,E,0.000,,100815,,,A*7F
$GPRMC,092843.00,A,1304.99878,N,08016.97760,E,0.000,,100815,,,A*78
$GPRMC,092842.00,A,1304.99878,N,08016.97760,E,0.000,,100815,,,A*79
$GPRMC,092840.00,A,1304.99878,N,08016.97760,E,0.000,,100815,,,A*7B
$GPRMC,092839.00,A,1304.99878,N,08016.97760,E,0.000,,100815,,,A*75
$GPRMC,092838.00,A,1304.99878,N,08016.97760,E,0.000,,100815,,,A*74
$GPRMC,092837.00,A,1304.99878,N,08016.97760,E,0.000,,100815,,,A*7B
$GPRMC,092836.00,A,1304.99878,N,08016.97760,E,0.000,,100815,,,A*7A
$GPRMC,092835.00,A,1304.99878,N,08016.97760,E,0.000,,100815,,,A*79
$GPRMC,092834.00,A,1304.99878,N,08016.97760,E,0.000,,100815,,,A*78
$GPRMC,092833.00,A,1304.99878,N,08016.97760,E,0.000,,100815,,,A*7F
$GPRMC,092831.00,A,1304.99878,N,08016.97760,E,0.000,,100815,,,A*7D
$GPRMC,092830.00,A,1304.99878,N,08016.97760,E,0.000,,100815,,,A*7C
$GPRMC,092829.00,A,1304.99878,N,08016.97760,E,0.000,,100815,,,A*74
$GPRMC,092828.00,A,1304.99878,N,08016.97760,E,0.052,,100815,,,A*72
$GPRMC,092827.00,A,1304.99875,N,08016.97756,E,0.190,,100815,,,A*7A
$GPRMC,092826.00,A,1304.99876,N,08016.97751,E,0.249,,100815,,,A*78
$GPRMC,092825.00,A,1304.99877,N,08016.97742,E,0.744,,100815,,,A*70
$GPRMC,092824.00,A,1304.99848,N,08016.97710,E,2.478,31.58,100815,,,A*55
$GPRMC,092822.00,A,1304.99652,N,08016.97541,E,6.719,28.14,100815,,,A*50
$GPRMC,092821.00,A,1304.99474,N,08016.97419,E,7.874,27.41,100815,,,A*53
$GPRMC,092820.00,A,1304.99266,N,08016.97305,E,10.261,28.71,100815,,,A*69
$GPRMC,092819.00,A,1304.99012,N,08016.97156,E,10.518,24.75,100815,,,A*67
$GPRMC,092818.00,A,1304.98725,N,08016.97007,E,12.098,28.30,100815,,,A*63
$GPRMC,092817.00,A,1304.98414,N,08016.96822,E,13.271,32.27,100815,,,A*6A
$GPRMC,092816.00,A,1304.98091,N,08016.96603,E,14.279,29.52,100815,,,A*68
$GPRMC,092815.00,A,1304.97731,N,08016.96391,E,14.909,30.19,100815,,,A*6C
$GPRMC,092813.00,A,1304.96989,N,08016.95906,E,16.385,30.68,100815,,,A*6B
$GPRMC,092812.00,A,1304.96589,N,08016.95648,E,17.117,32.14,100815,,,A*62
$GPRMC,092811.00,A,1304.96173,N,08016.95366,E,17.174,31.47,100815,,,A*69
$GPRMC,092810.00,A,1304.95753,N,08016.95098,E,17.655,30.57,100815,,,A*69
$GPRMC,092809.00,A,1304.95330,N,08016.94795,E,18.604,30.98,100815,,,A*63
$GPRMC,092808.00,A,1304.94886,N,08016.94505,E,18.740,29.75,100815,,,A*64
$GPRMC,092807.00,A,1304.94429,N,08016.94246,E,18.675,22.27,100815,,,A*69
$GPRMC,092806.00,A,1304.93940,N,08016.94010,E,19.478,24.94,100815,,,A*6C
$GPRMC,092804.00,A,1304.92980,N,08016.93425,E,19.708,32.26,100815,,,A*6C
$GPRMC,092803.00,A,1304.92513,N,08016.93124,E,19.977,30.51,100815,,,A*6D
$GPRMC,092802.00,A,1304.92034,N,08016.92819,E,20.701,32.63,100815,,,A*6C
$GPRMC,092801.00,A,1304.91547,N,08016.92503,E,21.093,31.41,100815,,,A*65
$GPRMC,092800.00,A,1304.91042,N,08016.92180,E,20.837,32.96,100815,,,A*65
$GPRMC,092759.00,A,1304.90557,N,08016.91851,E,20.585,34.48,100815,,,A*61
$GPRMC,092758.00,A,1304.90089,N,08016.91511,E,20.044,33.23,100815,,,A*6D
$GPRMC,092757.00,A,1304.89614,N,08016.91177,E,20.339,36.00,100815,,,A*61
$GPRMC,092755.00,A,1304.88695,N,08016.90470,E,18.900,39.91,100815,,,A*64
$GPRMC,092754.00,A,1304.88275,N,08016.90125,E,21.070,36.46,100815,,,A*6B
$GPRMC,092753.00,A,1304.87803,N,08016.89772,E,20.322,36.23,100815,,,A*62
$GPRMC,092752.00,A,1304.87345,N,08016.89425,E,20.823,35.55,100815,,,A*63
$GPRMC,092751.00,A,1304.86877,N,08016.89072,E,20.476,33.91,100815,,,A*6F
$GPRMC,092750.00,A,1304.86409,N,08016.88733,E,20.417,36.62,100815,,,A*66
$GPRMC,092749.00,A,1304.85949,N,08016.88385,E,20.330,37.77,100815,,,A*6A
$GPRMC,092748.00,A,1304.85482,N,08016.88043,E,20.091,36.39,100815,,,A*6B
$GPRMC,092746.00,A,1304.84575,N,08016.87349,E,20.139,39.20,100815,,,A*6F
$GPRMC,092745.00,A,1304.84119,N,08016.86993,E,20.030,41.14,100815,,,A*6E
$GPRMC,092744.00,A,1304.83679,N,08016.86616,E,20.328,42.35,100815,,,A*61
$GPRMC,092743.00,A,1304.83249,N,08016.86224,E,20.545,43.61,100815,,,A*69
$GPRMC,092742.00,A,1304.82832,N,08016.85808,E,20.596,46.69,100815,,,A*6B
$GPRMC,092741.00,A,1304.82432,N,08016.85382,E,19.880,50.43,100815,,,A*62
$GPRMC,092740.00,A,1304.82072,N,08016.84939,E,21.010,49.94,100815,,,A*60
$GPRMC,092739.00,A,1304.81698,N,08016.84474,E,21.020,52.98,100815,,,A*6E
$GPRMC,092737.00,A,1304.81013,N,08016.83520,E,20.597,55.01,100815,,,A*6D
$GPRMC,092736.00,A,1304.80681,N,08016.83028,E,20.601,56.31,100815,,,A*61
$GPRMC,092735.00,A,1304.80360,N,08016.82535,E,20.664,58.42,100815,,,A*69
$GPRMC,092734.00,A,1304.80057,N,08016.82026,E,20.787,60.72,100815,,,A*6C
$GPRMC,092733.00,A,1304.79785,N,08016.81491,E,20.845,63.23,100815,,,A*68
$GPRMC,092732.00,A,1304.79520,N,08016.80955,E,20.359,64.50,100815,,,A*65
$GPRMC,092731.00,A,1304.79277,N,08016.80413,E,20.857,66.63,100815,,,A*6B
$GPRMC,092730.00,A,1304.79052,N,08016.79854,E,20.877,68.73,100815,,,A*6B
$GPRMC,092728.00,A,1304.78649,N,08016.78719,E,20.856,72.38,100815,,,A*6F
$GPRMC,092727.00,A,1304.78474,N,08016.78137,E,20.952,73.99,100815,,,A*69
$GPRMC,092726.00,A,1304.78311,N,08016.77556,E,20.842,76.09,100815,,,A*6C
$GPRMC,092725.00,A,1304.78168,N,08016.76964,E,20.847,78.02,100815,,,A*6F
$GPRMC,092724.00,A,1304.78049,N,08016.76367,E,20.886,80.10,100815,,,A*6C
$GPRMC,092723.00,A,1304.77952,N,08016.75773,E,20.832,81.98,100815,,,A*6B
$GPRMC,092722.00,A,1304.77866,N,08016.75182,E,20.868,82.72,100815,,,A*6C
$GPRMC,092721.00,A,1304.77791,N,08016.74583,E,20.646,84.28,100815,,,A*67
$GPRMC,092719.00,A,1304.77674,N,08016.73387,E,20.858,85.33,100815,,,A*69
$GPRMC,092718.00,A,1304.77623,N,08016.72790,E,20.864,85.82,100815,,,A*6C
$GPRMC,092717.00,A,1304.77581,N,08016.72181,E,20.798,86.30,100815,,,A*68
$GPRMC,092716.00,A,1304.77541,N,08016.71584,E,20.470,86.49,100815,,,A*6C
$GPRMC,092715.00,A,1304.77500,N,08016.70992,E,20.161,86.41,100815,,,A*6D
$GPRMC,092714.00,A,1304.77462,N,08016.70412,E,19.838,86.61,100815,,,A*61
$GPRMC,092713.00,A,1304.77420,N,08016.69839,E,19.656,86.01,100815,,,A*6D
$GPRMC,092712.00,A,1304.77379,N,08016.69277,E,18.974,86.10,100815,,,A*69
$GPRMC,092710.00,A,1304.77279,N,08016.68175,E,17.607,84.33,100815,,,A*6D
$GPRMC,092709.00,A,1304.77218,N,08016.67656,E,17.563,85.65,100815,,,A*68
$GPRMC,092708.00,A,1304.77174,N,08016.67134,E,16.796,87.04,100815,,,A*6F
$GPRMC,092707.00,A,1304.77137,N,08016.66633,E,16.142,86.84,100815,,,A*60
$GPRMC,092706.00,A,1304.77106,N,08016.66158,E,15.828,87.74,100815,,,A*61
$GPRMC,092705.00,A,1304.77089,N,08016.65688,E,14.543,87.89,100815,,,A*6E
$GPRMC,092704.00,A,1304.77069,N,08016.65244,E,13.340,87.38,100815,,,A*6D
$GPRMC,092703.00,A,1304.77051,N,08016.64847,E,11.756,86.39,100815,,,A*68
$GPRMC,092701.00,A,1304.77034,N,08016.64136,E,10.432,89.94,100815,,,A*6E
$GPRMC,092700.00,A,1304.77035,N,08016.63830,E,10.036,88.31,100815,,,A*68
$GPRMC,092659.00,A,1304.77038,N,08016.63537,E,8.314,89.02,100815,,,A*59
$GPRMC,092658.00,A,1304.77044,N,08016.63298,E,6.802,90.63,100815,,,A*5C
$GPRMC,092657.00,A,1304.77062,N,08016.63090,E,7.474,82.32,100815,,,A*56
$GPRMC,092656.00,A,1304.77031,N,08016.62861,E,7.251,86.47,100815,,,A*51
$GPRMC,092655.00,A,1304.77017,N,08016.62651,E,5.911,85.40,100815,,,A*52
$GPRMC,092654.00,A,1304.77003,N,08016.62479,E,4.666,88.53,100815,,,A*5F
$GPRMC,092652.00,A,1304.77018,N,08016.62222,E,3.456,86.94,100815,,,A*58
$GPRMC,092651.00,A,1304.77018,N,08016.62105,E,2.925,87.00,100815,,,A*59
$GPRMC,092650.00,A,1304.77019,N,08016.62009,E,2.043,87.20,100815,,,A*5F
$GPRMC,092649.00,A,1304.77040,N,08016.61945,E,1.056,,100815,,,A*7D
$GPRMC,092648.00,A,1304.77107,N,08016.61910,E,0.000,,100815,,,A*7C
$GPRMC,092647.00,A,1304.77107,N,08016.61910,E,0.000,,100815,,,A*73
$GPRMC,092646.00,A,1304.77107,N,08016.61910,E,0.000,,100815,,,A*72
$GPRMC,092645.00,A,1304.77107,N,08016.61910,E,0.000,,100815,,,A*71
$GPRMC,092643.00,A,1304.77107,N,08016.61910,E,0.000,,100815,,,A*77
$GPRMC,092642.00,A,1304.77107,N,08016.61910,E,0.000,,100815,,,A*76
$GPRMC,092641.00,A,1304.77107,N,08016.61910,E,0.000,,100815,,,A*75
$GPRMC,092640.00,A,1304.77107,N,08016.61910,E,0.000,,100815,,,A*74
$GPRMC,092639.00,A,1304.77107,N,08016.61910,E,0.000,,100815,,,A*7A
$GPRMC,092638.00,A,1304.77107,N,08016.61910,E,0.000,,100815,,,A*7B
$GPRMC,092637.00,A,1304.77107,N,08016.61910,E,0.000,,100815,,,A*74
$GPRMC,092636.00,A,1304.77107,N,08016.61910,E,0.000,,100815,,,A*75
$GPRMC,092634.00,A,1304.77107,N,08016.61910,E,0.000,,100815,,,A*77
$GPRMC,092633.00,A,1304.77107,N,08016.61910,E,0.000,,100815,,,A*70
$GPRMC,092632.00,A,1304.77107,N,08016.61910,E,0.000,,100815,,,A*71
$GPRMC,092631.00,A,1304.77107,N,08016.61910,E,0.000,,100815,,,A*72
$GPRMC,092630.00,A,1304.77107,N,08016.61910,E,0.000,,100815,,,A*73
$GPRMC,092629.00,A,1304.77107,N,08016.61910,E,0.000,,100815,,,A*7B
$GPRMC,092628.00,A,1304.77107,N,08016.61910,E,0.000,,100815,,,A*7A
$GPRMC,092627.00,A,1304.77107,N,08016.61910,E,0.000,,100815,,,A*75
$GPRMC,092625.00,A,1304.77107,N,08016.61910,E,0.000,,100815,,,A*77
$GPRMC,092624.00,A,1304.77107,N,08016.61910,E,0.000,,100815,,,A*76
$GPRMC,092623.00,A,1304.77107,N,08016.61910,E,0.000,,100815,,,A*71
$GPRMC,092622.00,A,1304.77107,N,08016.61910,E,0.000,,100815,,,A*70
$GPRMC,092621.00,A,1304.77107,N,08016.61910,E,0.000,,100815,,,A*73
$GPRMC,092620.00,A,1304.77107,N,08016.61910,E,0.000,,100815,,,A*72
$GPRMC,092619.00,A,1304.77107,N,08016.61910,E,0.000,,100815,,,A*78
$GPRMC,092618.00,A,1304.77107,N,08016.61910,E,0.000,,100815,,,A*79
$GPRMC,092616.00,A,1304.77107,N,08016.61910,E,0.000,,100815,,,A*77
$GPRMC,092615.00,A,1304.77107,N,08016.61910,E,0.000,,100815,,,A*74
$GPRMC,092614.00,A,1304.77107,N,08016.61910,E,0.000,,100815,,,A*75
$GPRMC,092613.00,A,1304.77107,N,08016.61910,E,0.000,,100815,,,A*72
$GPRMC,092612.00,A,1304.77107,N,08016.61910,E,0.000,,100815,,,A*73
$GPRMC,092611.00,A,1304.77107,N,08016.61910,E,0.000,,100815,,,A*70
$GPRMC,092610.00,A,1304.77107,N,08016.61910,E,0.000,,100815,,,A*71
$GPRMC,092609.00,A,1304.77107,N,08016.61910,E,0.000,,100815,,,A*79
$GPRMC,092606.00,A,1304.77107,N,08016.61910,E,0.000,,100815,,,A*76
$GPRMC,092605.00,A,1304.77107,N,08016.61910,E,0.000,,100815,,,A*75
$GPRMC,092604.00,A,1304.77107,N,08016.61910,E,0.000,,100815,,,A*74
$GPRMC,092603.00,A,1304.77107,N,08016.61910,E,0.000,,100815,,,A*73
$GPRMC,092602.00,A,1304.77107,N,08016.61910,E,0.000,,100815,,,A*72
$GPRMC,092601.00,A,1304.77107,N,08016.61910,E,0.026,,100815,,,A*75
$GPRMC,092600.00,A,1304.77109,N,08016.61907,E,0.052,,100815,,,A*7F
$GPRMC,092559.00,A,1304.77110,N,08016.61902,E,0.174,,6.82,100815,,,A*78
$GPRMC,092557.00,A,1304.77110,N,08016.61855,E,2.598,88.08,100815,,,A*57
$GPRMC,092556.00,A,1304.77113,N,08016.61783,E,4.108,87.71,100815,,,A*5B
$GPRMC,092555.00,A,1304.77116,N,08016.61667,E,5.579,87.37,100815,,,A*57
$GPRMC,092554.00,A,1304.77122,N,08016.61506,E,7.287,86.19,100815,,,A*5C
$GPRMC,092553.00,A,1304.77114,N,08016.61294,E,8.134,86.60,100815,,,A*58
$GPRMC,092552.00,A,1304.77114,N,08016.61055,E,10.025,85.23,100815,,,A*6A
$GPRMC,092551.00,A,1304.77090,N,08016.60773,E,11.944,86.36,100815,,,A*6E
$GPRMC,092550.00,A,1304.77069,N,08016.60431,E,12.703,85.11,100815,,,A*64
$GPRMC,092548.00,A,1304.77010,N,08016.59690,E,14.087,85.68,100815,,,A*63
$GPRMC,092547.00,A,1304.76982,N,08016.59288,E,14.235,85.21,100815,,,A*64
$GPRMC,092546.00,A,1304.76940,N,08016.58890,E,14.910,87.84,100815,,,A*68
$GPRMC,092545.00,A,1304.76925,N,08016.58468,E,15.246,86.75,100815,,,A*65
$GPRMC,092544.00,A,1304.76902,N,08016.58033,E,15.729,86.25,100815,,,A*62
$GPRMC,092543.00,A,1304.76882,N,08016.57579,E,15.959,87.11,100815,,,A*67
$GPRMC,092542.00,A,1304.76879,N,08016.57118,E,16.505,82.38,100815,,,A*69
$GPRMC,092541.00,A,1304.76809,N,08016.56655,E,16.933,84.72,100815,,,A*63
$GPRMC,092539.00,A,1304.76741,N,08016.55643,E,18.268,81.07,100815,,,A*67
$GPRMC,092538.00,A,1304.76650,N,08016.55134,E,18.721,83.01,100815,,,A*6C
$GPRMC,092537.00,A,1304.76592,N,08016.54594,E,18.663,81.20,100815,,,A*67
$GPRMC,092536.00,A,1304.76517,N,08016.54058,E,18.602,78.64,100815,,,A*6F
$GPRMC,092535.00,A,1304.76422,N,08016.53523,E,18.405,77.77,100815,,,A*6D
$GPRMC,092534.00,A,1304.76340,N,08016.52969,E,17.445,73.01,100815,,,A*62
$GPRMC,092533.00,A,1304.76230,N,08016.52458,E,16.723,67.61,100815,,,A*6D
$GPRMC,092532.00,A,1304.76079,N,08016.52016,E,17.654,63.68,100815,,,A*60
$GPRMC,092530.00,A,1304.75646,N,08016.51102,E,16.553,60.91,100815,,,A*6C
$GPRMC,092529.00,A,1304.75398,N,08016.50715,E,18.005,66.30,100815,,,A*66
$GPRMC,092528.00,A,1304.75191,N,08016.50244,E,18.202,65.70,100815,,,A*6F
$GPRMC,092527.00,A,1304.74975,N,08016.49766,E,18.356,63.48,100815,,,A*63
$GPRMC,092526.00,A,1304.74731,N,08016.49290,E,18.726,61.69,100815,,,A*62
$GPRMC,092525.00,A,1304.74466,N,08016.48821,E,19.788,60.28,100815,,,A*60
$GPRMC,092524.00,A,1304.74187,N,08016.48320,E,20.837,56.55,100815,,,A*6F
$GPRMC,092523.00,A,1304.73849,N,08016.47834,E,21.140,56.21,100815,,,A*6E
$GPRMC,092521.00,A,1304.73142,N,08016.46817,E,21.656,50.82,100815,,,A*61
$GPRMC,092520.00,A,1304.72741,N,08016.46347,E,21.535,49.83,100815,,,A*65
$GPRMC,092519.00,A,1304.72345,N,08016.45867,E,21.706,46.45,100815,,,A*62
$GPRMC,092518.00,A,1304.71920,N,08016.45414,E,22.050,43.43,100815,,,A*65
$GPRMC,092517.00,A,1304.71469,N,08016.44986,E,21.868,41.57,100815,,,A*6A
$GPRMC,092516.00,A,1304.70995,N,08016.44569,E,21.106,39.27,100815,,,A*60
$GPRMC,092515.00,A,1304.70517,N,08016.44170,E,21.559,36.99,100815,,,A*6D
$GPRMC,092514.00,A,1304.70016,N,08016.43805,E,21.383,34.54,100815,,,A*66
$GPRMC,092512.00,A,1304.68982,N,08016.43122,E,21.058,30.20,100815,,,A*63
$GPRMC,092511.00,A,1304.68445,N,08016.42817,E,21.170,29.01,100815,,,A*68
$GPRMC,092510.00,A,1304.67907,N,08016.42514,E,20.781,26.62,100815,,,A*60
$GPRMC,092509.00,A,1304.67374,N,08016.42228,E,20.851,23.07,100815,,,A*6A
$GPRMC,092508.00,A,1304.66831,N,08016.41997,E,20.601,21.27,100815,,,A*67
$GPRMC,092507.00,A,1304.66286,N,08016.41790,E,20.780,18.61,100815,,,A*67
$GPRMC,092506.00,A,1304.65720,N,08016.41609,E,20.540,16.61,100815,,,A*6D
$GPRMC,092505.00,A,1304.65155,N,08016.41445,E,20.256,14.43,100815,,,A*62
$GPRMC,092503.00,A,1304.64039,N,08016.41158,E,20.161,8.90,100815,,,A*53
$GPRMC,092502.00,A,1304.63472,N,08016.41071,E,19.913,6.75,100815,,,A*56
$GPRMC,092501.00,A,1304.62899,N,08016.41007,E,19.822,4.63,100815,,,A*5A
$GPRMC,092500.00,A,1304.62333,N,08016.40964,E,19.708,2.64,100815,,,A*5B
$GPRMC,092459.00,A,1304.61777,N,08016.40946,E,19.599,0.79,100815,,,A*55
$GPRMC,092458.00,A,1304.61216,N,08016.40939,E,19.311,359.43,100815,,,A*5E
$GPRMC,092457.00,A,1304.60660,N,08016.40942,E,19.146,358.04,100815,,,A*5B
$GPRMC,092456.00,A,1304.60111,N,08016.40964,E,19.006,356.30,100815,,,A*53
$GPRMC,092454.00,A,1304.59016,N,08016.41043,E,18.724,354.41,100815,,,A*52
$GPRMC,092453.00,A,1304.58486,N,08016.41105,E,18.581,354.50,100815,,,A*57
$GPRMC,092452.00,A,1304.57953,N,08016.41159,E,18.492,354.11,100815,,,A*53
$GPRMC,092451.00,A,1304.57421,N,08016.41219,E,18.405,353.57,100815,,,A*54
$GPRMC,092450.00,A,1304.56888,N,08016.41278,E,18.151,353.92,100815,,,A*51
$GPRMC,092449.00,A,1304.56355,N,08016.41338,E,18.066,353.63,100815,,,A*5C
$GPRMC,092448.00,A,1304.55828,N,08016.41394,E,17.992,353.43,100815,,,A*56
$GPRMC,092447.00,A,1304.55285,N,08016.41455,E,17.961,353.52,100815,,,A*52
$GPRMC,092445.00,A,1304.54212,N,08016.41565,E,17.525,353.46,100815,,,A*54
$GPRMC,092444.00,A,1304.53686,N,08016.41613,E,17.461,352.97,100815,,,A*55
$GPRMC,092443.00,A,1304.53160,N,08016.41684,E,17.570,353.26,100815,,,A*59
$GPRMC,092442.00,A,1304.52633,N,08016.41739,E,17.464,352.88,100815,,,A*5E
$GPRMC,092441.00,A,1304.52116,N,08016.41800,E,17.470,353.03,100815,,,A*5F
$GPRMC,092440.00,A,1304.51586,N,08016.41860,E,17.391,353.09,100815,,,A*54
$GPRMC,092439.00,A,1304.51054,N,08016.41918,E,17.390,352.75,100815,,,A*55
$GPRMC,092438.00,A,1304.50521,N,08016.41976,E,17.344,352.77,100815,,,A*51
$GPRMC,092436.00,A,1304.49419,N,08016.42094,E,17.291,352.80,100815,,,A*5A
$GPRMC,092435.00,A,1304.48861,N,08016.42146,E,17.220,352.75,100815,,,A*55
$GPRMC,092434.00,A,1304.48314,N,08016.42204,E,17.089,352.88,100815,,,A*5B
$GPRMC,092433.00,A,1304.47764,N,08016.42253,E,16.732,352.28,100815,,,A*5E
$GPRMC,092432.00,A,1304.47191,N,08016.42323,E,16.190,353.05,100815,,,A*55
$GPRMC,092431.00,A,1304.46627,N,08016.42359,E,15.269,354.09,100815,,,A*5D
$GPRMC,092430.00,A,1304.46110,N,08016.42394,E,13.530,357.06,100815,,,A*5F
$GPRMC,092429.00,A,1304.45587,N,08016.42457,E,11.184,1.45,100815,,,A*58
$GPRMC,092427.00,A,1304.44762,N,08016.42428,E,6.816,355.99,100815,,,A*61
$GPRMC,092426.00,A,1304.44442,N,08016.42414,E,5.399,349.63,100815,,,A*69
$GPRMC,092425.00,A,1304.44186,N,08016.42441,E,6.962,348.23,100815,,,A*6F
$GPRMC,092424.00,A,1304.43860,N,08016.42470,E,4.239,337.15,100815,,,A*60
$GPRMC,092423.00,A,1304.43606,N,08016.42504,E,3.715,330.74,100815,,,A*67
$GPRMC,092422.00,A,1304.43366,N,08016.42549,E,2.462,327.23,100815,,,A*6A
$GPRMC,092421.00,A,1304.43218,N,08016.42592,E,3.422,334.72,100815,,,A*64
$GPRMC,092420.00,A,1304.43080,N,08016.42654,E,3.868,333.52,100815,,,A*68
$GPRMC,092418.00,A,1304.42753,N,08016.42750,E,2.835,336.04,100815,,,A*61
$GPRMC,092417.00,A,1304.42613,N,08016.42775,E,2.467,337.41,100815,,,A*67
$GPRMC,092416.00,A,1304.42447,N,08016.42774,E,2.524,331.85,100815,,,A*6C
$GPRMC,092415.00,A,1304.42274,N,08016.42788,E,1.525,,100815,,,A*7A
$GPRMC,092414.00,A,1304.42132,N,08016.42795,E,1.366,,100815,,,A*77
$GPRMC,092413.00,A,1304.41930,N,08016.42787,E,0.470,,100815,,,A*7B
$GPRMC,092412.00,A,1304.41783,N,08016.42796,E,0.000,,100815,,,A*7F
$GPRMC,092411.00,A,1304.41783,N,08016.42796,E,0.000,,100815,,,A*7C
$GPRMC,092409.00,A,1304.41783,N,08016.42796,E,0.000,,100815,,,A*75
$GPRMC,092408.00,A,1304.41783,N,08016.42796,E,0.000,,100815,,,A*74
$GPRMC,092407.00,A,1304.41783,N,08016.42796,E,0.000,,100815,,,A*7B
$GPRMC,092406.00,A,1304.41783,N,08016.42796,E,0.000,,100815,,,A*7A
$GPRMC,092405.00,A,1304.41783,N,08016.42796,E,0.000,,100815,,,A*79
$GPRMC,092404.00,A,1304.41783,N,08016.42796,E,0.000,,100815,,,A*78
$GPRMC,092403.00,A,1304.41783,N,08016.42796,E,0.000,,100815,,,A*7F
$GPRMC,092402.00,A,1304.41783,N,08016.42796,E,0.000,,100815,,,A*7E
$GPRMC,092400.00,A,1304.41783,N,08016.42796,E,0.000,,100815,,,A*7C
$GPRMC,092359.00,A,1304.41783,N,08016.42796,E,0.090,,100815,,,A*7E
$GPRMC,092358.00,A,1304.41741,N,08016.42777,E,0.057,,100815,,,A*75
$GPRMC,092357.00,A,1304.41690,N,08016.42757,E,0.139,,100815,,,A*7C
$GPRMC,092356.00,A,1304.41628,N,08016.42722,E,0.329,,100815,,,A*7F
$GPRMC,092355.00,A,1304.41574,N,08016.42714,E,0.422,,100815,,,A*7F
$GPRMC,092354.00,A,1304.41530,N,08016.42708,E,0.511,,100815,,,A*72
$GPRMC,092353.00,A,1304.41480,N,08016.42703,E,0.652,,100815,,,A*70
$GPRMC,092351.00,A,1304.41346,N,08016.42719,E,0.920,,100815,,,A*7E
$GPRMC,092350.00,A,1304.41284,N,08016.42728,E,0.896,,100815,,,A*7E
$GPRMC,092349.00,A,1304.41168,N,08016.42722,E,1.690,306.11,100815,,,A*6F
$GPRMC,092348.00,A,1304.41045,N,08016.42766,E,2.419,307.37,100815,,,A*65
$GPRMC,092347.00,A,1304.40890,N,08016.42800,E,2.038,322.26,100815,,,A*64
$GPRMC,092346.00,A,1304.40783,N,08016.42813,E,2.624,333.25,100815,,,A*62
$GPRMC,092345.00,A,1304.40629,N,08016.42818,E,2.867,329.99,100815,,,A*6E
$GPRMC,092344.00,A,1304.40485,N,08016.42839,E,2.682,328.35,100815,,,A*6A
$GPRMC,092342.00,A,1304.40213,N,08016.42885,E,4.216,329.70,100815,,,A*6D
$GPRMC,092341.00,A,1304.40027,N,08016.42931,E,5.555,328.51,100815,,,A*66
$GPRMC,092340.00,A,1304.39839,N,08016.43033,E,5.915,335.72,100815,,,A*61
$GPRMC,092339.00,A,1304.39652,N,08016.43108,E,4.636,348.59,100815,,,A*69
$GPRMC,092338.00,A,1304.39477,N,08016.43077,E,6.836,333.70,100815,,,A*6F
$GPRMC,092337.00,A,1304.39254,N,08016.43153,E,6.849,331.19,100815,,,A*65
$GPRMC,092336.00,A,1304.39057,N,08016.43282,E,6.840,345.54,100815,,,A*69
$GPRMC,092335.00,A,1304.38839,N,08016.43367,E,9.717,357.83,100815,,,A*6A
$GPRMC,092333.00,A,1304.38300,N,08016.43463,E,10.131,10.25,100815,,,A*68
$GPRMC,092332.00,A,1304.38006,N,08016.43335,E,11.092,345.10,100815,,,A*54
$GPRMC,092331.00,A,1304.37703,N,08016.43401,E,9.754,340.66,100815,,,A*6A
$GPRMC,092330.00,A,1304.37433,N,08016.43486,E,11.683,331.02,100815,,,A*52
$GPRMC,092329.00,A,1304.37141,N,08016.43682,E,15.181,334.09,100815,,,A*53
$GPRMC,092328.00,A,1304.36743,N,08016.43852,E,16.735,334.59,100815,,,A*5B
$GPRMC,092327.00,A,1304.36312,N,08016.44059,E,17.628,336.85,100815,,,A*5F
$GPRMC,092326.00,A,1304.35858,N,08016.44259,E,18.106,338.71,100815,,,A*5B
$GPRMC,092324.00,A,1304.34917,N,08016.44665,E,18.579,335.47,100815,,,A*5D
$GPRMC,092323.00,A,1304.34448,N,08016.44895,E,18.686,332.79,100815,,,A*55
$GPRMC,092322.00,A,1304.33988,N,08016.45158,E,18.780,332.55,100815,,,A*52
$GPRMC,092321.00,A,1304.33523,N,08016.45405,E,18.786,330.59,100815,,,A*59
$GPRMC,092320.00,A,1304.33068,N,08016.45675,E,18.978,329.05,100815,,,A*59
$GPRMC,092319.00,A,1304.32619,N,08016.45957,E,18.964,327.99,100815,,,A*5B
$GPRMC,092318.00,A,1304.32166,N,08016.46239,E,19.145,324.13,100815,,,A*5E
$GPRMC,092317.00,A,1304.31727,N,08016.46558,E,19.238,322.27,100815,,,A*59
$GPRMC,092315.00,A,1304.30894,N,08016.47257,E,19.396,318.39,100815,,,A*57
$GPRMC,092314.00,A,1304.30483,N,08016.47631,E,19.437,316.58,100815,,,A*5D
$GPRMC,092313.00,A,1304.30085,N,08016.48019,E,19.448,314.61,100815,,,A*5B
$GPRMC,092312.00,A,1304.29703,N,08016.48420,E,19.643,312.76,100815,,,A*5C
$GPRMC,092311.00,A,1304.29332,N,08016.48834,E,19.779,311.15,100815,,,A*5E
$GPRMC,092310.00,A,1304.28953,N,08016.49262,E,19.943,309.79,100815,,,A*5F
$GPRMC,092309.00,A,1304.28596,N,08016.49700,E,19.961,308.33,100815,,,A*5C
$GPRMC,092308.00,A,1304.28246,N,08016.50149,E,20.027,307.46,100815,,,A*58
$GPRMC,092306.00,A,1304.27563,N,08016.51062,E,20.154,305.30,100815,,,A*56
$GPRMC,092305.00,A,1304.27236,N,08016.51533,E,20.362,305.51,100815,,,A*53
$GPRMC,092304.00,A,1304.26903,N,08016.52002,E,20.459,305.20,100815,,,A*53
$GPRMC,092303.00,A,1304.26569,N,08016.52478,E,20.626,304.67,100815,,,A*55
$GPRMC,092302.00,A,1304.26236,N,08016.52961,E,20.564,304.68,100815,,,A*56
$GPRMC,092301.00,A,1304.25906,N,08016.53446,E,20.629,304.54,100815,,,A*52
$GPRMC,092300.00,A,1304.25577,N,08016.53934,E,20.664,304.98,100815,,,A*58
$GPRMC,092259.00,A,1304.25242,N,08016.54417,E,20.765,304.83,100815,,,A*55
$GPRMC,092257.00,A,1304.24583,N,08016.55398,E,20.889,305.21,100815,,,A*55
$GPRMC,092256.00,A,1304.24244,N,08016.55887,E,20.904,305.31,100815,,,A*58
$GPRMC,092255.00,A,1304.23900,N,08016.56374,E,20.964,306.47,100815,,,A*57
$GPRMC,092254.00,A,1304.23539,N,08016.56855,E,21.051,305.18,100815,,,A*5F
$GPRMC,092253.00,A,1304.23198,N,08016.57347,E,21.003,305.13,100815,,,A*52
$GPRMC,092252.00,A,1304.22856,N,08016.57836,E,21.058,305.07,100815,,,A*5F
$GPRMC,092251.00,A,1304.22515,N,08016.58331,E,21.178,304.92,100815,,,A*5B
$GPRMC,092250.00,A,1304.22171,N,08016.58826,E,21.232,305.43,100815,,,A*51
$GPRMC,092248.00,A,1304.21477,N,08016.59819,E,21.192,305.31,100815,,,A*59
$GPRMC,092247.00,A,1304.21128,N,08016.60315,E,21.235,305.22,100815,,,A*58
$GPRMC,092246.00,A,1304.20776,N,08016.60813,E,21.243,305.13,100815,,,A*5B
$GPRMC,092245.00,A,1304.20430,N,08016.61312,E,21.266,305.25,100815,,,A*50
$GPRMC,092244.00,A,1304.20080,N,08016.61806,E,21.216,305.43,100815,,,A*57
$GPRMC,092243.00,A,1304.19731,N,08016.62300,E,21.246,305.81,100815,,,A*52
$GPRMC,092242.00,A,1304.19373,N,08016.62790,E,21.125,306.04,100815,,,A*54
$GPRMC,092241.00,A,1304.19017,N,08016.63281,E,21.343,307.26,100815,,,A*51
$GPRMC,092239.00,A,1304.18260,N,08016.64255,E,21.404,310.17,100815,,,A*53
$GPRMC,092238.00,A,1304.17861,N,08016.64730,E,21.492,311.75,100815,,,A*5A
$GPRMC,092237.00,A,1304.17449,N,08016.65202,E,21.523,313.68,100815,,,A*53
$GPRMC,092236.00,A,1304.17029,N,08016.65651,E,21.608,316.08,100815,,,A*5B
$GPRMC,092235.00,A,1304.16585,N,08016.66075,E,21.558,317.76,100815,,,A*57
$GPRMC,092234.00,A,1304.16132,N,08016.66493,E,21.674,320.16,100815,,,A*5D
$GPRMC,092233.00,A,1304.15660,N,08016.66889,E,21.735,322.16,100815,,,A*58
$GPRMC,092232.00,A,1304.15174,N,08016.67269,E,21.751,324.74,100815,,,A*5E
$GPRMC,092230.00,A,1304.14152,N,08016.67957,E,21.874,328.98,100815,,,A*59
$GPRMC,092229.00,A,1304.13621,N,08016.68275,E,21.935,331.15,100815,,,A*58
$GPRMC,092228.00,A,1304.13078,N,08016.68572,E,22.002,332.83,100815,,,A*51
$GPRMC,092227.00,A,1304.12526,N,08016.68856,E,22.133,335.47,100815,,,A*56
$GPRMC,092226.00,A,1304.11955,N,08016.69114,E,22.200,337.35,100815,,,A*56
$GPRMC,092225.00,A,1304.11375,N,08016.69355,E,22.092,339.51,100815,,,A*5F
$GPRMC,092224.00,A,1304.10792,N,08016.69580,E,22.112,342.09,100815,,,A*54
$GPRMC,092223.00,A,1304.10196,N,08016.69768,E,22.329,343.78,100815,,,A*58
$GPRMC,092221.00,A,1304.08977,N,08016.70076,E,22.333,347.27,100815,,,A*51
$GPRMC,092220.00,A,1304.08362,N,08016.70210,E,22.349,347.73,100815,,,A*50
$GPRMC,092219.00,A,1304.07749,N,08016.70342,E,22.347,349.15,100815,,,A*5E
$GPRMC,092218.00,A,1304.07127,N,08016.70444,E,22.410,349.23,100815,,,A*50
$GPRMC,092217.00,A,1304.06506,N,08016.70554,E,22.369,349.43,100815,,,A*56
$GPRMC,092216.00,A,1304.05883,N,08016.70661,E,22.490,349.74,100815,,,A*54
$GPRMC,092215.00,A,1304.05256,N,08016.70769,E,22.519,349.77,100815,,,A*5F
$GPRMC,092214.00,A,1304.04630,N,08016.70872,E,22.464,349.81,100815,,,A*5C
$GPRMC,092212.00,A,1304.03385,N,08016.71093,E,22.182,349.68,100815,,,A*5A
$GPRMC,092211.00,A,1304.02769,N,08016.71201,E,21.920,348.95,100815,,,A*57
$GPRMC,092210.00,A,1304.02163,N,08016.71319,E,21.520,348.60,100815,,,A*54
$GPRMC,092209.00,A,1304.01569,N,08016.71448,E,21.384,347.75,100815,,,A*51
$GPRMC,092208.00,A,1304.00980,N,08016.71580,E,21.204,346.20,100815,,,A*57
$GPRMC,092207.00,A,1304.00399,N,08016.71726,E,20.985,344.56,100815,,,A*54
$GPRMC,092206.00,A,1303.99828,N,08016.71889,E,20.727,342.85,100815,,,A*57
$GPRMC,092205.00,A,1303.99265,N,08016.72062,E,20.579,340.59,100815,,,A*53
$GPRMC,092203.00,A,1303.98157,N,08016.72448,E,20.127,337.30,100815,,,A*5A
$GPRMC,092202.00,A,1303.97628,N,08016.72671,E,20.007,335.32,100815,,,A*50
$GPRMC,092201.00,A,1303.97098,N,08016.72896,E,20.092,333.15,100815,,,A*56
$GPRMC,092200.00,A,1303.96579,N,08016.73147,E,19.973,331.79,100815,,,A*5C
$GPRMC,092159.00,A,1303.96065,N,08016.73405,E,19.918,330.09,100815,,,A*53
$GPRMC,092158.00,A,1303.95569,N,08016.73684,E,20.125,328.53,100815,,,A*59
$GPRMC,092157.00,A,1303.95070,N,08016.73973,E,19.988,327.21,100815,,,A*53
$GPRMC,092156.00,A,1303.94587,N,08016.74281,E,20.287,326.00,100815,,,A*53
$GPRMC,092154.00,A,1303.93623,N,08016.74927,E,20.364,324.22,100815,,,A*52
$GPRMC,092153.00,A,1303.93148,N,08016.75266,E,20.174,323.55,100815,,,A*54
$GPRMC,092152.00,A,1303.92680,N,08016.75608,E,20.003,323.79,100815,,,A*54
$GPRMC,092151.00,A,1303.92203,N,08016.75942,E,18.755,327.83,100815,,,A*57
$GPRMC,092150.00,A,1303.91756,N,08016.76230,E,19.799,323.41,100815,,,A*56
$GPRMC,092149.00,A,1303.91316,N,08016.76577,E,20.441,323.33,100815,,,A*53
$GPRMC,092148.00,A,1303.90853,N,08016.76928,E,20.777,323.65,100815,,,A*5A
$GPRMC,092147.00,A,1303.90370,N,08016.77270,E,20.680,324.43,100815,,,A*52
$GPRMC,092145.00,A,1303.89403,N,08016.77943,E,20.834,324.25,100815,,,A*51
$GPRMC,092144.00,A,1303.88924,N,08016.78292,E,20.918,324.01,100815,,,A*58
$GPRMC,092143.00,A,1303.88436,N,08016.78636,E,20.760,324.31,100815,,,A*59
$GPRMC,092142.00,A,1303.87953,N,08016.78971,E,20.945,324.43,100815,,,A*59
$GPRMC,092141.00,A,1303.87467,N,08016.79312,E,21.222,324.27,100815,,,A*57
$GPRMC,092140.00,A,1303.86971,N,08016.79652,E,21.396,324.47,100815,,,A*54
$GPRMC,092139.00,A,1303.86472,N,08016.80002,E,21.428,325.68,100815,,,A*5F
$GPRMC,092138.00,A,1303.85963,N,08016.80340,E,21.493,325.90,100815,,,A*52
$GPRMC,092136.00,A,1303.84950,N,08016.81022,E,21.121,328.41,100815,,,A*56
$GPRMC,092135.00,A,1303.84439,N,08016.81328,E,20.303,329.71,100815,,,A*5F
$GPRMC,092134.00,A,1303.83933,N,08016.81603,E,19.550,331.66,100815,,,A*57
$GPRMC,092133.00,A,1303.83437,N,08016.81844,E,18.637,333.32,100815,,,A*54
$GPRMC,092132.00,A,1303.82959,N,08016.82067,E,17.615,335.04,100815,,,A*57
$GPRMC,092131.00,A,1303.82496,N,08016.82267,E,16.555,336.42,100815,,,A*5F
$GPRMC,092130.00,A,1303.82045,N,08016.82426,E,15.602,337.85,100815,,,A*5F
$GPRMC,092129.00,A,1303.81611,N,08016.82571,E,14.637,338.96,100815,,,A*5A
$GPRMC,092127.00,A,1303.80834,N,08016.82837,E,12.757,340.70,100815,,,A*55
$GPRMC,092126.00,A,1303.80476,N,08016.82950,E,12.126,342.09,100815,,,A*52
$GPRMC,092125.00,A,1303.80135,N,08016.83055,E,11.679,342.95,100815,,,A*55
$GPRMC,092124.00,A,1303.79807,N,08016.83158,E,11.305,344.40,100815,,,A*56
$GPRMC,092123.00,A,1303.79484,N,08016.83236,E,10.900,345.33,100815,,,A*56
$GPRMC,092122.00,A,1303.79165,N,08016.83306,E,10.758,346.44,100815,,,A*5F
$GPRMC,092121.00,A,1303.78851,N,08016.83378,E,10.706,347.26,100815,,,A*54
$GPRMC,092120.00,A,1303.78538,N,08016.83447,E,10.686,348.57,100815,,,A*5C
$GPRMC,092118.00,A,1303.77871,N,08016.83575,E,10.816,350.05,100815,,,A*51
$GPRMC,092117.00,A,1303.77537,N,08016.83624,E,10.700,350.97,100815,,,A*55
$GPRMC,092116.00,A,1303.77212,N,08016.83686,E,10.804,352.27,100815,,,A*5E
$GPRMC,092115.00,A,1303.76876,N,08016.83728,E,10.939,353.91,100815,,,A*52
$GPRMC,092114.00,A,1303.76519,N,08016.83771,E,10.792,359.03,100815,,,A*55
$GPRMC,092113.00,A,1303.76162,N,08016.83775,E,10.144,2.85,100815,,,A*50
$GPRMC,092112.00,A,1303.75827,N,08016.83753,E,10.620,2.31,100815,,,A*54
$GPRMC,092111.00,A,1303.75476,N,08016.83747,E,9.961,,2.38,100815,,,A*61
$GPRMC,092109.00,A,1303.74811,N,08016.83711,E,10.507,0.05,100815,,,A*5F
$GPRMC,092108.00,A,1303.74462,N,08016.83713,E,9.867,0.75,100815,,,A*60
$GPRMC,092107.00,A,1303.74128,N,08016.83712,E,8.618,3.11,100815,,,A*63
$GPRMC,092106.00,A,1303.73849,N,08016.83698,E,7.788,6.99,100815,,,A*6A
$GPRMC,092105.00,A,1303.73579,N,08016.83660,E,6.149,5.54,100815,,,A*68
$GPRMC,092104.00,A,1303.73356,N,08016.83630,E,6.741,3.15,100815,,,A*6A
$GPRMC,092103.00,A,1303.73121,N,08016.83611,E,5.183,1.08,100815,,,A*69
$GPRMC,092102.00,A,1303.72925,N,08016.83569,E,5.191,354.31,100815,,,A*63
$GPRMC,092100.00,A,1303.72564,N,08016.83582,E,3.817,8.06,100815,,,A*62
$GPRMC,092059.00,A,1303.72398,N,08016.83566,E,3.327,11.60,100815,,,A*50
$GPRMC,092058.00,A,1303.72291,N,08016.83562,E,3.513,18.08,100815,,,A*5B
$GPRMC,092057.00,A,1303.72166,N,08016.83512,E,4.013,13.15,100815,,,A*5D
$GPRMC,092056.00,A,1303.72007,N,08016.83460,E,2.952,16.02,100815,,,A*57
$GPRMC,092055.00,A,1303.71881,N,08016.83418,E,1.553,20.86,100815,,,A*59
$GPRMC,092054.00,A,1303.71801,N,08016.83371,E,1.360,10.96,100815,,,A*5C
$GPRMC,092053.00,A,1303.71716,N,08016.83332,E,1.154,4.37,100815,,,A*6E
$GPRMC,092051.00,A,1303.71552,N,08016.83242,E,0.000,,100815,,,A*77
$GPRMC,092050.00,A,1303.71552,N,08016.83242,E,0.000,,100815,,,A*76
$GPRMC,092049.00,A,1303.71552,N,08016.83242,E,0.000,,100815,,,A*7E
$GPRMC,092048.00,A,1303.71552,N,08016.83242,E,0.000,,100815,,,A*7F
$GPRMC,092047.00,A,1303.71552,N,08016.83242,E,0.000,,100815,,,A*70
$GPRMC,092046.00,A,1303.71552,N,08016.83242,E,0.000,,100815,,,A*71
$GPRMC,092045.00,A,1303.71552,N,08016.83242,E,0.000,,100815,,,A*72
$GPRMC,092044.00,A,1303.71552,N,08016.83242,E,0.000,,100815,,,A*73
$GPRMC,092042.00,A,1303.71552,N,08016.83242,E,0.000,,100815,,,A*75
$GPRMC,092041.00,A,1303.71552,N,08016.83242,E,0.000,,100815,,,A*76
$GPRMC,092040.00,A,1303.71552,N,08016.83242,E,0.000,,100815,,,A*77
$GPRMC,092039.00,A,1303.71552,N,08016.83242,E,0.000,,100815,,,A*79
$GPRMC,092038.00,A,1303.71552,N,08016.83242,E,0.000,,100815,,,A*78
$GPRMC,092037.00,A,1303.71552,N,08016.83242,E,0.000,,100815,,,A*77
$GPRMC,092036.00,A,1303.71552,N,08016.83242,E,0.000,,100815,,,A*76
$GPRMC,092035.00,A,1303.71552,N,08016.83242,E,0.000,,100815,,,A*75
$GPRMC,092033.00,A,1303.71552,N,08016.83242,E,0.000,,100815,,,A*73
$GPRMC,092032.00,A,1303.71552,N,08016.83242,E,0.000,,100815,,,A*72
$GPRMC,092031.00,A,1303.71552,N,08016.83242,E,0.000,,100815,,,A*71
$GPRMC,092030.00,A,1303.71552,N,08016.83242,E,0.000,,100815,,,A*70
$GPRMC,092029.00,A,1303.71552,N,08016.83242,E,0.000,,100815,,,A*78
$GPRMC,092028.00,A,1303.71552,N,08016.83242,E,0.000,,100815,,,A*79
$GPRMC,092027.00,A,1303.71552,N,08016.83242,E,0.227,,100815,,,A*71
$GPRMC,092026.00,A,1303.71508,N,08016.83203,E,0.187,,100815,,,A*73
$GPRMC,092024.00,A,1303.71428,N,08016.83118,E,0.216,,100815,,,A*70
$GPRMC,092023.00,A,1303.71390,N,08016.83085,E,0.271,,100815,,,A*77
$GPRMC,092022.00,A,1303.71336,N,08016.83035,E,0.271,,100815,,,A*71
$GPRMC,092021.00,A,1303.71281,N,08016.82983,E,0.185,,100815,,,A*72
$GPRMC,092020.00,A,1303.71220,N,08016.82932,E,0.545,,100815,,,A*7A
$GPRMC,092019.00,A,1303.71155,N,08016.82889,E,1.206,351.68,100815,,,A*66
$GPRMC,092018.00,A,1303.71067,N,08016.82847,E,1.528,358.09,100815,,,A*60
$GPRMC,092017.00,A,1303.70968,N,08016.82803,E,1.942,358.57,100815,,,A*63
$GPRMC,092015.00,A,1303.70746,N,08016.82721,E,3.801,1.03,100815,,,A*66
$GPRMC,092014.00,A,1303.70597,N,08016.82682,E,3.982,1.40,100815,,,A*6C
$GPRMC,092013.00,A,1303.70436,N,08016.82635,E,4.761,358.09,100815,,,A*6B
$GPRMC,092012.00,A,1303.70251,N,08016.82591,E,5.222,354.61,100815,,,D*64
$GPRMC,092011.00,A,1303.70069,N,08016.82587,E,6.245,355.87,100815,,,D*62
$GPRMC,092010.00,A,1303.69862,N,08016.82585,E,7.048,357.31,100815,,,D*6B
$GPRMC,092009.00,A,1303.69647,N,08016.82594,E,8.516,0.53,100815,,,D*6E
$GPRMC,092008.00,A,1303.69378,N,08016.82541,E,9.536,357.29,100815,,,D*61
$GPRMC,092006.00,A,1303.68783,N,08016.82518,E,9.732,8.79,100815,,,D*68
$GPRMC,092005.00,A,1303.68493,N,08016.82427,E,10.414,5.62,100815,,,D*5C
$GPRMC,092004.00,A,1303.68185,N,08016.82361,E,10.032,1.64,100815,,,D*58
$GPRMC,092003.00,A,1303.67886,N,08016.82352,E,9.810,2.38,100815,,,D*60
$GPRMC,092002.00,A,1303.67585,N,08016.82307,E,8.973,359.57,100815,,,D*6E
$GPRMC,092001.00,A,1303.67328,N,08016.82300,E,9.013,356.45,100815,,,D*69
$GPRMC,092000.00,A,1303.67077,N,08016.82211,E,10.791,346.95,100815,,,D*59
$GPRMC,091959.00,A,1303.66803,N,08016.82337,E,12.937,353.57,100815,,,D*5A
$GPRMC,091957.00,A,1303.66064,N,08016.82454,E,14.125,359.24,100815,,,D*5C
$GPRMC,091956.00,A,1303.65674,N,08016.82468,E,16.008,1.34,100815,,,D*55
$GPRMC,091955.00,A,1303.65221,N,08016.82462,E,16.890,5.75,100815,,,D*50
$GPRMC,091954.00,A,1303.64748,N,08016.82418,E,17.005,6.76,100815,,,D*52
$GPRMC,091953.00,A,1303.64271,N,08016.82365,E,17.281,7.36,100815,,,D*5C
$GPRMC,091952.00,A,1303.63782,N,08016.82300,E,17.595,7.42,100815,,,D*51
$GPRMC,091951.00,A,1303.63288,N,08016.82239,E,18.008,7.25,100815,,,D*59
$GPRMC,091950.00,A,1303.62778,N,08016.82171,E,18.641,6.42,100815,,,D*57
$GPRMC,091948.00,A,1303.61716,N,08016.82060,E,19.291,4.49,100815,,,D*55
$GPRMC,091947.00,A,1303.61166,N,08016.82017,E,19.793,3.42,100815,,,D*50
$GPRMC,091946.00,A,1303.60607,N,08016.81984,E,19.927,2.05,100815,,,D*53
$GPRMC,091945.00,A,1303.60039,N,08016.81965,E,20.052,1.35,100815,,,D*55
$GPRMC,091944.00,A,1303.59467,N,08016.81953,E,20.309,0.30,100815,,,D*5D
$GPRMC,091943.00,A,1303.58889,N,08016.81949,E,20.514,359.03,100815,,,D*59
$GPRMC,091942.00,A,1303.58305,N,08016.81959,E,20.584,358.13,100815,,,D*5F
$GPRMC,091941.00,A,1303.57722,N,08016.81978,E,20.715,357.61,100815,,,D*51
$GPRMC,091939.00,A,1303.56536,N,08016.82032,E,20.887,357.41,100815,,,D*5A
$GPRMC,091938.00,A,1303.55938,N,08016.82057,E,20.867,356.90,100815,,,D*5A
$GPRMC,091937.00,A,1303.55341,N,08016.82084,E,20.962,356.99,100815,,,D*52
$GPRMC,091936.00,A,1303.54741,N,08016.82116,E,21.070,357.01,100815,,,D*57
$GPRMC,091935.00,A,1303.54135,N,08016.82145,E,21.097,356.62,100815,,,D*5A
$GPRMC,091934.00,A,1303.53530,N,08016.82177,E,21.114,356.59,100815,,,D*5E
$GPRMC,091933.00,A,1303.52927,N,08016.82211,E,21.182,356.31,100815,,,D*50
$GPRMC,091932.00,A,1303.52320,N,08016.82248,E,21.332,356.68,100815,,,D*55
$GPRMC,091930.00,A,1303.51084,N,08016.82305,E,21.486,356.58,100815,,,D*5A
$GPRMC,091929.00,A,1303.50462,N,08016.82333,E,21.433,356.46,100815,,,D*5B
$GPRMC,091928.00,A,1303.49841,N,08016.82367,E,21.485,356.85,100815,,,D*5C
$GPRMC,091927.00,A,1303.49213,N,08016.82389,E,21.552,356.69,100815,,,D*57
$GPRMC,091926.00,A,1303.48583,N,08016.82416,E,21.580,356.75,100815,,,D*5A
$GPRMC,091925.00,A,1303.47947,N,08016.82440,E,21.645,356.72,100815,,,D*5C
$GPRMC,091924.00,A,1303.47305,N,08016.82463,E,21.645,357.03,100815,,,D*57
$GPRMC,091923.00,A,1303.46666,N,08016.82487,E,21.728,356.39,100815,,,D*59
$GPRMC,091921.00,A,1303.45385,N,08016.82563,E,21.802,356.54,100815,,,D*57
$GPRMC,091920.00,A,1303.44743,N,08016.82606,E,21.772,356.39,100815,,,D*5A
$GPRMC,091919.00,A,1303.44094,N,08016.82643,E,21.498,356.42,100815,,,A*52
$GPRMC,091918.00,A,1303.43444,N,08016.82684,E,21.216,356.45,100815,,,A*51
$GPRMC,091917.00,A,1303.42797,N,08016.82715,E,20.970,356.33,100815,,,A*50
$GPRMC,091916.00,A,1303.42155,N,08016.82748,E,20.716,356.35,100815,,,A*59
$GPRMC,091915.00,A,1303.41529,N,08016.82775,E,20.391,356.29,100815,,,A*5E
$GPRMC,091914.00,A,1303.40907,N,08016.82795,E,19.969,356.76,100815,,,A*5D
$GPRMC,091912.00,A,1303.39684,N,08016.82872,E,19.372,355.93,100815,,,A*5F
$GPRMC,091911.00,A,1303.39089,N,08016.82908,E,19.025,356.06,100815,,,A*55
$GPRMC,091910.00,A,1303.38494,N,08016.82940,E,18.702,355.70,100815,,,A*50
$GPRMC,091909.00,A,1303.37904,N,08016.82970,E,18.265,355.70,100815,,,A*54
$GPRMC,091908.00,A,1303.37295,N,08016.82962,E,17.807,356.05,100815,,,A*55
$GPRMC,091907.00,A,1303.36683,N,08016.83004,E,17.351,356.34,100815,,,A*5A
$GPRMC,091906.00,A,1303.36071,N,08016.83029,E,16.705,355.72,100815,,,A*5A
$GPRMC,091905.00,A,1303.35448,N,08016.82984,E,15.057,352.99,100815,,,A*5A
$GPRMC,091903.00,A,1303.34375,N,08016.82963,E,9.355,353.15,100815,,,A*64
$GPRMC,091902.00,A,1303.33943,N,08016.82897,E,7.927,346.84,100815,,,A*6A
$GPRMC,091901.00,A,1303.33669,N,08016.82956,E,7.906,350.25,100815,,,A*6D
$GPRMC,091900.00,A,1303.33353,N,08016.82990,E,6.513,350.15,100815,,,A*60
$GPRMC,091859.00,A,1303.33059,N,08016.82976,E,5.341,344.23,100815,,,A*6E
$GPRMC,091858.00,A,1303.32828,N,08016.83015,E,4.611,342.73,100815,,,A*6F
$GPRMC,091857.00,A,1303.32625,N,08016.82979,E,4.835,333.01,100815,,,A*6A
$GPRMC,091856.00,A,1303.32421,N,08016.83074,E,2.640,342.54,100815,,,A*64
